[
  {
    "beer_name": "Kentucky Brunch Brand Stout",
    "brewery_name": " Toppling Goliath Brewing Company ",
    "style": " American Imperial Stout",
    "abv": 12.0,
    "availability": "Rotating",
    "brew_state": " IA ",
    "brew_city": " Decorah",
    "lat": 43.3033056,
    "lng": -91.7857092,
    "beer_id": 0
  },
  {
    "beer_name": "Marshmallow Handjee",
    "brewery_name": " 3 Floyds Brewing Co. ",
    "style": " Russian Imperial Stout",
    "abv": 15.0,
    "availability": "Spring",
    "brew_state": " IN ",
    "brew_city": " Munster",
    "lat": 41.5644798,
    "lng": -87.5125412,
    "beer_id": 1
  },
  {
    "beer_name": "Hunahpu's Imperial Stout - Double Barrel Aged",
    "brewery_name": " Cigar City Brewing ",
    "style": " American Imperial Stout",
    "abv": 11.0,
    "availability": "Rotating",
    "brew_state": " FL ",
    "brew_city": " Tampa",
    "lat": 27.9477595,
    "lng": -82.458444,
    "beer_id": 2
  },
  {
    "beer_name": "Barrel-Aged Abraxas",
    "brewery_name": " Perennial Artisan Ales ",
    "style": " American Imperial Stout",
    "abv": 11.0,
    "availability": "Rotating",
    "brew_state": " MO ",
    "brew_city": " Saint Louis",
    "lat": 38.6268039,
    "lng": -90.1994097,
    "beer_id": 3
  },
  {
    "beer_name": "Heady Topper",
    "brewery_name": " The Alchemist ",
    "style": " New England IPA",
    "abv": 8.0,
    "availability": "Year-round",
    "brew_state": " VT ",
    "brew_city": " Stowe",
    "lat": 44.4653741,
    "lng": -72.6860186,
    "beer_id": 4
  },
  {
    "beer_name": "Mornin' Delight",
    "brewery_name": " Toppling Goliath Brewing Company ",
    "style": " American Imperial Stout",
    "abv": 12.8,
    "availability": "Rotating",
    "brew_state": " IA ",
    "brew_city": " Decorah",
    "lat": 43.3033056,
    "lng": -91.7857092,
    "beer_id": 5
  },
  {
    "beer_name": "Pliny The Younger",
    "brewery_name": " Russian River Brewing Company ",
    "style": " American Imperial IPA",
    "abv": 10.25,
    "availability": "Winter",
    "brew_state": " CA ",
    "brew_city": " Santa Rosa",
    "lat": 49.2633419,
    "lng": -123.1024943,
    "beer_id": 6
  },
  {
    "beer_name": "King Julius",
    "brewery_name": " Tree House Brewing Company ",
    "style": " New England IPA",
    "abv": 8.3,
    "availability": "Rotating",
    "brew_state": " MA ",
    "brew_city": " Charlton",
    "lat": 42.1348444,
    "lng": -71.9643153,
    "beer_id": 7
  },
  {
    "beer_name": "King JJJuliusss",
    "brewery_name": " Tree House Brewing Company ",
    "style": " New England IPA",
    "abv": 8.4,
    "availability": "Rotating",
    "brew_state": " MA ",
    "brew_city": " Charlton",
    "lat": 42.1348444,
    "lng": -71.9643153,
    "beer_id": 8
  },
  {
    "beer_name": "Very Hazy",
    "brewery_name": " Tree House Brewing Company ",
    "style": " New England IPA",
    "abv": 8.6,
    "availability": "Rotating",
    "brew_state": " MA ",
    "brew_city": " Charlton",
    "lat": 42.1348444,
    "lng": -71.9643153,
    "beer_id": 9
  },
  {
    "beer_name": "SR-71",
    "brewery_name": " Toppling Goliath Brewing Company ",
    "style": " American Imperial Stout",
    "abv": 14.0,
    "availability": "Rotating",
    "brew_state": " IA ",
    "brew_city": " Decorah",
    "lat": 43.3033056,
    "lng": -91.7857092,
    "beer_id": 10
  },
  {
    "beer_name": "Fundamental Observation",
    "brewery_name": " Bottle Logic Brewing ",
    "style": " American Imperial Stout",
    "abv": 14.3,
    "availability": "Rotating",
    "brew_state": " CA ",
    "brew_city": " Anaheim",
    "lat": 33.8347516,
    "lng": -117.911732,
    "beer_id": 11
  },
  {
    "beer_name": "CBS (Canadian Breakfast Stout)",
    "brewery_name": " Founders Brewing Company ",
    "style": " American Imperial Stout",
    "abv": 11.3,
    "availability": "Rotating",
    "brew_state": " MI ",
    "brew_city": " Grand Rapids",
    "lat": 42.9632405,
    "lng": -85.6678639,
    "beer_id": 12
  },
  {
    "beer_name": "Pliny The Elder",
    "brewery_name": " Russian River Brewing Company ",
    "style": " American Imperial IPA",
    "abv": 8.0,
    "availability": "Year-round",
    "brew_state": " CA ",
    "brew_city": " Santa Rosa",
    "lat": 38.4404925,
    "lng": -122.7141049,
    "beer_id": 13
  },
  {
    "beer_name": "Juice Machine",
    "brewery_name": " Tree House Brewing Company ",
    "style": " New England IPA",
    "abv": 8.2,
    "availability": "Rotating",
    "brew_state": " MA ",
    "brew_city": " Charlton",
    "lat": 42.1348444,
    "lng": -71.9643153,
    "beer_id": 14
  },
  {
    "beer_name": "Fou' Foune",
    "brewery_name": " Brasserie Cantillon ",
    "style": " Belgian Fruit Lambic",
    "abv": 5.5,
    "availability": "Rotating",
    "brew_state": " Belgium ",
    "brew_city": " Brussels",
    "lat": 50.8436709,
    "lng": 4.3674367,
    "beer_id": 15
  },
  {
    "beer_name": "Assassin",
    "brewery_name": " Toppling Goliath Brewing Company ",
    "style": " American Imperial Stout",
    "abv": 12.0,
    "availability": "Rotating",
    "brew_state": " IA ",
    "brew_city": " Decorah",
    "lat": 43.3033056,
    "lng": -91.7857092,
    "beer_id": 16
  },
  {
    "beer_name": "Very Green",
    "brewery_name": " Tree House Brewing Company ",
    "style": " New England IPA",
    "abv": 8.6,
    "availability": "Rotating",
    "brew_state": " MA ",
    "brew_city": " Charlton",
    "lat": 42.1348444,
    "lng": -71.9643153,
    "beer_id": 17
  },
  {
    "beer_name": "Julius",
    "brewery_name": " Tree House Brewing Company ",
    "style": " New England IPA",
    "abv": 6.8,
    "availability": "Rotating",
    "brew_state": " MA ",
    "brew_city": " Charlton",
    "lat": 42.1348444,
    "lng": -71.9643153,
    "beer_id": 18
  },
  {
    "beer_name": "Zenne Y Frontera",
    "brewery_name": " Brouwerij 3 Fonteinen ",
    "style": " Belgian Lambic",
    "abv": 7.0,
    "availability": "Rotating",
    "brew_state": " Belgium ",
    "brew_city": " Beersel",
    "lat": 50.7683728,
    "lng": 4.3051098,
    "beer_id": 19
  },
  {
    "beer_name": "Double Sunshine",
    "brewery_name": " Lawson's Finest Liquids ",
    "style": " American Imperial IPA",
    "abv": 8.0,
    "availability": "Rotating",
    "brew_state": " VT ",
    "brew_city": " Waitsfield",
    "lat": 44.192132,
    "lng": -72.8227076,
    "beer_id": 20
  },
  {
    "beer_name": "Abner",
    "brewery_name": " Hill Farmstead Brewery ",
    "style": " New England IPA",
    "abv": 8.2,
    "availability": "Rotating",
    "brew_state": " VT ",
    "brew_city": " Greensboro Bend",
    "lat": 44.5489422,
    "lng": -72.2648257,
    "beer_id": 21
  },
  {
    "beer_name": "Bourbon County Brand Stout",
    "brewery_name": " Goose Island Beer Co. ",
    "style": " American Imperial Stout",
    "abv": 14.7,
    "availability": "Winter",
    "brew_state": " IL ",
    "brew_city": " Chicago",
    "lat": 41.8755616,
    "lng": -87.6244212,
    "beer_id": 22
  },
  {
    "beer_name": "Trappist Westvleteren 12 (XII)",
    "brewery_name": " Brouwerij Westvleteren (Sint-Sixtusabdij van Westvleteren) ",
    "style": " Belgian Quadrupel (Quad)",
    "abv": 10.2,
    "availability": "Year-round",
    "brew_state": " Belgium ",
    "brew_city": " Westvleteren",
    "lat": 50.9103823,
    "lng": 2.7205509,
    "beer_id": 23
  },
  {
    "beer_name": "Barrel Aged Imperial German Chocolate Cupcake Stout",
    "brewery_name": " Angry Chair Brewing ",
    "style": " American Imperial Stout",
    "abv": 11.0,
    "availability": "Rotating",
    "brew_state": " FL ",
    "brew_city": " Tampa",
    "lat": 27.9477595,
    "lng": -82.458444,
    "beer_id": 24
  },
  {
    "beer_name": "Dinner",
    "brewery_name": " Maine Beer Company ",
    "style": " American Imperial IPA",
    "abv": 8.2,
    "availability": "Rotating",
    "brew_state": " ME ",
    "brew_city": " Freeport",
    "lat": 43.857307,
    "lng": -70.10376,
    "beer_id": 25
  },
  {
    "beer_name": "KBS (Kentucky Breakfast Stout)",
    "brewery_name": " Founders Brewing Company ",
    "style": " American Imperial Stout",
    "abv": 12.3,
    "availability": "Spring",
    "brew_state": " MI ",
    "brew_city": " Grand Rapids",
    "lat": 42.9632405,
    "lng": -85.6678639,
    "beer_id": 26
  },
  {
    "beer_name": "Parabola",
    "brewery_name": " Firestone Walker Brewing Co. ",
    "style": " Russian Imperial Stout",
    "abv": 13.0,
    "availability": "Rotating",
    "brew_state": " CA ",
    "brew_city": " Paso Robles",
    "lat": 35.6267654,
    "lng": -120.6912456,
    "beer_id": 27
  },
  {
    "beer_name": "JJJuliusss",
    "brewery_name": " Tree House Brewing Company ",
    "style": " New England IPA",
    "abv": 6.8,
    "availability": "Rotating",
    "brew_state": " MA ",
    "brew_city": " Charlton",
    "lat": 42.1348444,
    "lng": -71.9643153,
    "beer_id": 28
  },
  {
    "beer_name": "Duck Duck Gooze",
    "brewery_name": " The Lost Abbey ",
    "style": " Belgian Gueuze",
    "abv": 7.0,
    "availability": "Rotating",
    "brew_state": " CA ",
    "brew_city": " San Marcos",
    "lat": 33.1433723,
    "lng": -117.1661449,
    "beer_id": 29
  },
  {
    "beer_name": "Speedway Stout - Vietnamese Coffee - Bourbon-Barrel Aged",
    "brewery_name": " AleSmith Brewing Company ",
    "style": " American Imperial Stout",
    "abv": 12.0,
    "availability": "Rotating",
    "brew_state": " CA ",
    "brew_city": " San Diego",
    "lat": 32.7174209,
    "lng": -117.1627714,
    "beer_id": 30
  },
  {
    "beer_name": "Morning Wood",
    "brewery_name": " Funky Buddha Brewery ",
    "style": " American Imperial Porter",
    "abv": 12.0,
    "availability": "Rotating",
    "brew_state": " FL ",
    "brew_city": " Oakland Park",
    "lat": 26.1801443,
    "lng": -80.1372006,
    "beer_id": 31
  },
  {
    "beer_name": "Lou Pepe - Kriek",
    "brewery_name": " Brasserie Cantillon ",
    "style": " Belgian Fruit Lambic",
    "abv": 5.0,
    "availability": "Rotating",
    "brew_state": " Belgium ",
    "brew_city": " Brussels",
    "lat": 50.8436709,
    "lng": 4.3674367,
    "beer_id": 32
  },
  {
    "beer_name": "Zombie Dust",
    "brewery_name": " 3 Floyds Brewing Co. ",
    "style": " American Pale Ale (APA)",
    "abv": 6.2,
    "availability": "Year-round",
    "brew_state": " IN ",
    "brew_city": " Munster",
    "lat": 41.5644798,
    "lng": -87.5125412,
    "beer_id": 33
  },
  {
    "beer_name": "Bourbon County Brand Vanilla Stout",
    "brewery_name": " Goose Island Beer Co. ",
    "style": " American Imperial Stout",
    "abv": 14.9,
    "availability": "Rotating",
    "brew_state": " IL ",
    "brew_city": " Chicago",
    "lat": 41.8755616,
    "lng": -87.6244212,
    "beer_id": 34
  },
  {
    "beer_name": "Fuzzy",
    "brewery_name": " Side Project Brewing ",
    "style": " American Wild Ale",
    "abv": 8.0,
    "availability": "Rotating",
    "brew_state": " MO ",
    "brew_city": " Maplewood",
    "lat": 38.6125521,
    "lng": -90.3245599,
    "beer_id": 35
  },
  {
    "beer_name": "Westly",
    "brewery_name": " Sante Adairius Rustic Ales ",
    "style": " American Wild Ale",
    "abv": 8.5,
    "availability": "Rotating",
    "brew_state": " CA ",
    "brew_city": " Capitola",
    "lat": 36.9762927,
    "lng": -121.9540577,
    "beer_id": 36
  },
  {
    "beer_name": "Ann",
    "brewery_name": " Hill Farmstead Brewery ",
    "style": " Belgian Saison",
    "abv": 6.5,
    "availability": "Rotating",
    "brew_state": " VT ",
    "brew_city": " Greensboro Bend",
    "lat": 44.5489422,
    "lng": -72.2648257,
    "beer_id": 37
  },
  {
    "beer_name": "Doubleganger",
    "brewery_name": " Tree House Brewing Company ",
    "style": " New England IPA",
    "abv": 8.2,
    "availability": "Rotating",
    "brew_state": " MA ",
    "brew_city": " Charlton",
    "lat": 42.1348444,
    "lng": -71.9643153,
    "beer_id": 38
  },
  {
    "beer_name": "Hunahpu's Imperial Stout",
    "brewery_name": " Cigar City Brewing ",
    "style": " American Imperial Stout",
    "abv": 10.2,
    "availability": "Spring",
    "brew_state": " FL ",
    "brew_city": " Tampa",
    "lat": 27.9477595,
    "lng": -82.458444,
    "beer_id": 39
  },
  {
    "beer_name": "King Sue",
    "brewery_name": " Toppling Goliath Brewing Company ",
    "style": " New England IPA",
    "abv": 7.8,
    "availability": "Rotating",
    "brew_state": " IA ",
    "brew_city": " Decorah",
    "lat": 43.3033056,
    "lng": -91.7857092,
    "beer_id": 40
  },
  {
    "beer_name": "Double Citra\u00ae",
    "brewery_name": " Hill Farmstead Brewery ",
    "style": " New England IPA",
    "abv": 8.0,
    "availability": "Rotating",
    "brew_state": " VT ",
    "brew_city": " Greensboro Bend",
    "lat": 44.5489422,
    "lng": -72.2648257,
    "beer_id": 41
  },
  {
    "beer_name": "Atrial Rubicite",
    "brewery_name": " Jester King Brewery ",
    "style": " American Wild Ale",
    "abv": 5.8,
    "availability": "Rotating",
    "brew_state": " TX ",
    "brew_city": " Austin",
    "lat": 30.2711286,
    "lng": -97.7436995,
    "beer_id": 42
  },
  {
    "beer_name": "Headroom",
    "brewery_name": " Trillium Brewing Company ",
    "style": " New England IPA",
    "abv": 8.0,
    "availability": "Rotating",
    "brew_state": " MA ",
    "brew_city": " Boston",
    "lat": 42.3602534,
    "lng": -71.0582912,
    "beer_id": 43
  },
  {
    "beer_name": "Double Galaxy",
    "brewery_name": " Hill Farmstead Brewery ",
    "style": " New England IPA",
    "abv": 8.0,
    "availability": "Rotating",
    "brew_state": " VT ",
    "brew_city": " Greensboro Bend",
    "lat": 44.5489422,
    "lng": -72.2648257,
    "beer_id": 44
  },
  {
    "beer_name": "Very GGGreennn",
    "brewery_name": " Tree House Brewing Company ",
    "style": " New England IPA",
    "abv": 8.3,
    "availability": "Rotating",
    "brew_state": " MA ",
    "brew_city": " Charlton",
    "lat": 42.1348444,
    "lng": -71.9643153,
    "beer_id": 45
  },
  {
    "beer_name": "Framboise Du Fermier",
    "brewery_name": " Side Project Brewing ",
    "style": " Belgian Saison",
    "abv": 8.0,
    "availability": "Rotating",
    "brew_state": " MO ",
    "brew_city": " Maplewood",
    "lat": 38.6125521,
    "lng": -90.3245599,
    "beer_id": 46
  },
  {
    "beer_name": "Cable Car",
    "brewery_name": " The Lost Abbey ",
    "style": " American Wild Ale",
    "abv": 7.0,
    "availability": "Rotating",
    "brew_state": " CA ",
    "brew_city": " San Marcos",
    "lat": 33.1433723,
    "lng": -117.1661449,
    "beer_id": 47
  },
  {
    "beer_name": "Supplication",
    "brewery_name": " Russian River Brewing Company ",
    "style": " American Wild Ale",
    "abv": 7.75,
    "availability": "Rotating",
    "brew_state": " CA ",
    "brew_city": " Santa Rosa",
    "lat": 49.2633419,
    "lng": -123.1024943,
    "beer_id": 48
  },
  {
    "beer_name": "Citra",
    "brewery_name": " Kern River Brewing Company ",
    "style": " American Imperial IPA",
    "abv": 8.0,
    "availability": "Rotating",
    "brew_state": " CA ",
    "brew_city": " Kernville",
    "lat": 35.7330735,
    "lng": -118.4339459,
    "beer_id": 49
  },
  {
    "beer_name": "Double Dry Hopped Congress Street",
    "brewery_name": " Trillium Brewing Company ",
    "style": " New England IPA",
    "abv": 7.2,
    "availability": "Rotating",
    "brew_state": " MA ",
    "brew_city": " Boston",
    "lat": 42.3602534,
    "lng": -71.0582912,
    "beer_id": 50
  },
  {
    "beer_name": "Focal Banger",
    "brewery_name": " The Alchemist ",
    "style": " New England IPA",
    "abv": 7.0,
    "availability": "Year-round",
    "brew_state": " VT ",
    "brew_city": " Stowe",
    "lat": 44.4653741,
    "lng": -72.6860186,
    "beer_id": 51
  },
  {
    "beer_name": "Green",
    "brewery_name": " Tree House Brewing Company ",
    "style": " New England IPA",
    "abv": 7.6,
    "availability": "Rotating",
    "brew_state": " MA ",
    "brew_city": " Charlton",
    "lat": 42.1348444,
    "lng": -71.9643153,
    "beer_id": 52
  },
  {
    "beer_name": "Lou Pepe - Framboise",
    "brewery_name": " Brasserie Cantillon ",
    "style": " Belgian Fruit Lambic",
    "abv": 5.5,
    "availability": "Rotating",
    "brew_state": " Belgium ",
    "brew_city": " Brussels",
    "lat": 50.8436709,
    "lng": 4.3674367,
    "beer_id": 53
  },
  {
    "beer_name": "Aaron",
    "brewery_name": " Hill Farmstead Brewery ",
    "style": " English Barleywine",
    "abv": 9.0,
    "availability": "Rotating",
    "brew_state": " VT ",
    "brew_city": " Greensboro Bend",
    "lat": 44.5489422,
    "lng": -72.2648257,
    "beer_id": 54
  },
  {
    "beer_name": "Oude Geuze Vintage",
    "brewery_name": " Brouwerij 3 Fonteinen ",
    "style": " Belgian Gueuze",
    "abv": 6.0,
    "availability": "Rotating",
    "brew_state": " Belgium ",
    "brew_city": " Beersel",
    "lat": 50.7683728,
    "lng": 4.3051098,
    "beer_id": 55
  },
  {
    "beer_name": "Chemtrailmix",
    "brewery_name": " 3 Floyds Brewing Co. ",
    "style": " Russian Imperial Stout",
    "abv": 15.0,
    "availability": "Spring",
    "brew_state": " IN ",
    "brew_city": " Munster",
    "lat": 41.5644798,
    "lng": -87.5125412,
    "beer_id": 56
  },
  {
    "beer_name": "Sip Of Sunshine",
    "brewery_name": " Lawson's Finest Liquids ",
    "style": " American Imperial IPA",
    "abv": 8.0,
    "availability": "Year-round",
    "brew_state": " VT ",
    "brew_city": " Waitsfield",
    "lat": 44.192132,
    "lng": -72.8227076,
    "beer_id": 57
  },
  {
    "beer_name": "Swish",
    "brewery_name": " Bissell Brothers Brewing Co. ",
    "style": " New England IPA",
    "abv": 8.0,
    "availability": "Rotating",
    "brew_state": " ME ",
    "brew_city": " Portland",
    "lat": 29.0654892,
    "lng": -110.9717051,
    "beer_id": 58
  },
  {
    "beer_name": "Black Tuesday",
    "brewery_name": " The Bruery ",
    "style": " American Imperial Stout",
    "abv": 19.5,
    "availability": "Fall",
    "brew_state": " CA ",
    "brew_city": " Placentia",
    "lat": 47.2435087,
    "lng": -53.9635466,
    "beer_id": 59
  },
  {
    "beer_name": "Maman",
    "brewery_name": " Perennial Artisan Ales ",
    "style": " American Imperial Stout",
    "abv": 11.5,
    "availability": "Rotating",
    "brew_state": " MO ",
    "brew_city": " Saint Louis",
    "lat": 38.6268039,
    "lng": -90.1994097,
    "beer_id": 60
  },
  {
    "beer_name": "BBADL (Bourbon Barrel Aged Dark Lord Imperial Stout)",
    "brewery_name": " 3 Floyds Brewing Co. ",
    "style": " Russian Imperial Stout",
    "abv": 15.0,
    "availability": "Rotating",
    "brew_state": " IN ",
    "brew_city": " Munster",
    "lat": 41.5644798,
    "lng": -87.5125412,
    "beer_id": 61
  },
  {
    "beer_name": "Society & Solitude #4",
    "brewery_name": " Hill Farmstead Brewery ",
    "style": " New England IPA",
    "abv": 8.0,
    "availability": "Rotating",
    "brew_state": " VT ",
    "brew_city": " Greensboro Bend",
    "lat": 44.5489422,
    "lng": -72.2648257,
    "beer_id": 62
  },
  {
    "beer_name": "Chocolate Rain",
    "brewery_name": " The Bruery ",
    "style": " American Imperial Stout",
    "abv": 19.6,
    "availability": "Rotating",
    "brew_state": " CA ",
    "brew_city": " Placentia",
    "lat": 47.2435087,
    "lng": -53.9635466,
    "beer_id": 63
  },
  {
    "beer_name": "Beatification",
    "brewery_name": " Russian River Brewing Company ",
    "style": " American Wild Ale",
    "abv": 6.0,
    "availability": "Rotating",
    "brew_state": " CA ",
    "brew_city": " Santa Rosa",
    "lat": 49.2633419,
    "lng": -123.1024943,
    "beer_id": 64
  },
  {
    "beer_name": "Anabasis",
    "brewery_name": " Side Project Brewing ",
    "style": " American Barleywine",
    "abv": 14.0,
    "availability": "Rotating",
    "brew_state": " MO ",
    "brew_city": " Maplewood",
    "lat": 38.6125521,
    "lng": -90.3245599,
    "beer_id": 65
  },
  {
    "beer_name": "Nectarine Premiere",
    "brewery_name": " de Garde Brewing ",
    "style": " Belgian Saison",
    "abv": 7.1,
    "availability": "Rotating",
    "brew_state": " OR ",
    "brew_city": " Tillamook",
    "lat": 45.460293,
    "lng": -123.7266793,
    "beer_id": 66
  },
  {
    "beer_name": "Fourth Dementia - Bourbon Barrel-Aged",
    "brewery_name": " Kuhnhenn Brewing Company ",
    "style": " English Old Ale",
    "abv": 13.5,
    "availability": "Rotating",
    "brew_state": " MI ",
    "brew_city": " Warren",
    "lat": 42.4932575,
    "lng": -83.0062746,
    "beer_id": 67
  },
  {
    "beer_name": "Doppelganger",
    "brewery_name": " Tree House Brewing Company ",
    "style": " New England IPA",
    "abv": 8.2,
    "availability": "Rotating",
    "brew_state": " MA ",
    "brew_city": " Charlton",
    "lat": 42.1348444,
    "lng": -71.9643153,
    "beer_id": 68
  },
  {
    "beer_name": "Ephraim",
    "brewery_name": " Hill Farmstead Brewery ",
    "style": " New England IPA",
    "abv": 10.0,
    "availability": "Rotating",
    "brew_state": " VT ",
    "brew_city": " Greensboro Bend",
    "lat": 44.5489422,
    "lng": -72.2648257,
    "beer_id": 69
  },
  {
    "beer_name": "Double Dry Hopped Fort Point Pale Ale",
    "brewery_name": " Trillium Brewing Company ",
    "style": " American Pale Ale (APA)",
    "abv": 6.6,
    "availability": "Rotating",
    "brew_state": " MA ",
    "brew_city": " Boston",
    "lat": 42.3602534,
    "lng": -71.0582912,
    "beer_id": 70
  },
  {
    "beer_name": "Haze",
    "brewery_name": " Tree House Brewing Company ",
    "style": " New England IPA",
    "abv": 8.2,
    "availability": "Rotating",
    "brew_state": " MA ",
    "brew_city": " Charlton",
    "lat": 42.1348444,
    "lng": -71.9643153,
    "beer_id": 71
  },
  {
    "beer_name": "It Was All A Dream",
    "brewery_name": " J. Wakefield Brewing ",
    "style": " American Imperial Stout",
    "abv": 17.0,
    "availability": "Rotating",
    "brew_state": " FL ",
    "brew_city": " Miami",
    "lat": 25.7742658,
    "lng": -80.1936589,
    "beer_id": 72
  },
  {
    "beer_name": "Grande Negro Voodoo Papi - Bourbon Barrel-Aged",
    "brewery_name": " Voodoo Brewery ",
    "style": " American Imperial Stout",
    "abv": 12.5,
    "availability": "Rotating",
    "brew_state": " PA ",
    "brew_city": " Meadville",
    "lat": 41.641445,
    "lng": -80.151449,
    "beer_id": 73
  },
  {
    "beer_name": "Triple Sunshine",
    "brewery_name": " Lawson's Finest Liquids ",
    "style": " American Imperial IPA",
    "abv": 10.5,
    "availability": "Rotating",
    "brew_state": " VT ",
    "brew_city": " Waitsfield",
    "lat": 44.192132,
    "lng": -72.8227076,
    "beer_id": 74
  },
  {
    "beer_name": "Triple Shot",
    "brewery_name": " Tree House Brewing Company ",
    "style": " American Imperial Stout",
    "abv": 9.0,
    "availability": "Rotating",
    "brew_state": " MA ",
    "brew_city": " Charlton",
    "lat": 42.1348444,
    "lng": -71.9643153,
    "beer_id": 75
  },
  {
    "beer_name": "Black Note Stout",
    "brewery_name": " Bell's Brewery - Eccentric Caf\u00e9 & General Store ",
    "style": " American Imperial Stout",
    "abv": 11.2,
    "availability": "Rotating",
    "brew_state": " MI ",
    "brew_city": " Kalamazoo",
    "lat": 42.291707,
    "lng": -85.5872286,
    "beer_id": 76
  },
  {
    "beer_name": "V.S.O.J.",
    "brewery_name": " Revolution Brewing ",
    "style": " English Barleywine",
    "abv": 14.0,
    "availability": "Rotating",
    "brew_state": " IL ",
    "brew_city": " Chicago",
    "lat": 41.8755616,
    "lng": -87.6244212,
    "beer_id": 77
  },
  {
    "beer_name": "Keene Idea",
    "brewery_name": " Alpine Beer Company ",
    "style": " American Imperial IPA",
    "abv": 8.88,
    "availability": "Rotating",
    "brew_state": " CA ",
    "brew_city": " Alpine",
    "lat": 54.6610806,
    "lng": -102.0793157,
    "beer_id": 78
  },
  {
    "beer_name": "Saint Lamvinus",
    "brewery_name": " Brasserie Cantillon ",
    "style": " Belgian Fruit Lambic",
    "abv": 7.0,
    "availability": "Rotating",
    "brew_state": " Belgium ",
    "brew_city": " Brussels",
    "lat": 50.8436709,
    "lng": 4.3674367,
    "beer_id": 79
  },
  {
    "beer_name": "The Broken Truck",
    "brewery_name": " de Garde Brewing ",
    "style": " American Wild Ale",
    "abv": 5.0,
    "availability": "Rotating",
    "brew_state": " OR ",
    "brew_city": " Tillamook",
    "lat": 45.460293,
    "lng": -123.7266793,
    "beer_id": 80
  },
  {
    "beer_name": "Galaxy Dry Hopped Fort Point Pale Ale",
    "brewery_name": " Trillium Brewing Company ",
    "style": " American Pale Ale (APA)",
    "abv": 6.6,
    "availability": "Rotating",
    "brew_state": " MA ",
    "brew_city": " Boston",
    "lat": 42.3602534,
    "lng": -71.0582912,
    "beer_id": 81
  },
  {
    "beer_name": "Beer Geek Vanilla Shake - Bourbon Barrel-Aged",
    "brewery_name": " Mikkeller ApS ",
    "style": " American Imperial Stout",
    "abv": 13.0,
    "availability": "Rotating",
    "brew_state": " Denmark ",
    "brew_city": " K\u00f8benhavn",
    "lat": 55.6867243,
    "lng": 12.5700724,
    "beer_id": 82
  },
  {
    "beer_name": "Abricot Du Fermier",
    "brewery_name": " Side Project Brewing ",
    "style": " Belgian Saison",
    "abv": 8.0,
    "availability": "Rotating",
    "brew_state": " MO ",
    "brew_city": " Maplewood",
    "lat": 38.6125521,
    "lng": -90.3245599,
    "beer_id": 83
  },
  {
    "beer_name": "Bourbon Paradise",
    "brewery_name": " Prairie Artisan Ales ",
    "style": " American Imperial Stout",
    "abv": 13.7,
    "availability": "Rotating",
    "brew_state": " OK ",
    "brew_city": " Tulsa",
    "lat": 36.1556805,
    "lng": -95.9929113,
    "beer_id": 84
  },
  {
    "beer_name": "Flora Plum",
    "brewery_name": " Hill Farmstead Brewery ",
    "style": " Belgian Saison",
    "abv": 5.0,
    "availability": "Rotating",
    "brew_state": " VT ",
    "brew_city": " Greensboro Bend",
    "lat": 44.5489422,
    "lng": -72.2648257,
    "beer_id": 85
  },
  {
    "beer_name": "Saison Du Fermier",
    "brewery_name": " Side Project Brewing ",
    "style": " Belgian Saison",
    "abv": 7.0,
    "availability": "Rotating",
    "brew_state": " MO ",
    "brew_city": " Maplewood",
    "lat": 38.6125521,
    "lng": -90.3245599,
    "beer_id": 86
  },
  {
    "beer_name": "West Ashley",
    "brewery_name": " Sante Adairius Rustic Ales ",
    "style": " American Wild Ale",
    "abv": 7.3,
    "availability": "Rotating",
    "brew_state": " CA ",
    "brew_city": " Capitola",
    "lat": 36.9762927,
    "lng": -121.9540577,
    "beer_id": 87
  },
  {
    "beer_name": "Breakfast Stout",
    "brewery_name": " Founders Brewing Company ",
    "style": " English Oatmeal Stout",
    "abv": 8.3,
    "availability": "Year-round",
    "brew_state": " MI ",
    "brew_city": " Grand Rapids",
    "lat": 42.9632405,
    "lng": -85.6678639,
    "beer_id": 88
  },
  {
    "beer_name": "A Deal With The Devil",
    "brewery_name": " Anchorage Brewing Company ",
    "style": " American Barleywine",
    "abv": 17.3,
    "availability": "Rotating",
    "brew_state": " AK ",
    "brew_city": " Anchorage",
    "lat": 61.2163129,
    "lng": -149.8948523,
    "beer_id": 89
  },
  {
    "beer_name": "Trappistes Rochefort 10",
    "brewery_name": " Brasserie de Rochefort ",
    "style": " Belgian Quadrupel (Quad)",
    "abv": 11.3,
    "availability": "Year-round",
    "brew_state": " Belgium ",
    "brew_city": " Rochefort",
    "lat": 50.1588503,
    "lng": 5.2233447,
    "beer_id": 90
  },
  {
    "beer_name": "Coffee Cinnamon B-Bomb",
    "brewery_name": " Fremont Brewing Company ",
    "style": " American Strong Ale",
    "abv": 13.0,
    "availability": "Rotating",
    "brew_state": " WA ",
    "brew_city": " Seattle",
    "lat": 47.6038321,
    "lng": -122.3300624,
    "beer_id": 91
  },
  {
    "beer_name": "Beyond Good And Evil",
    "brewery_name": " Hill Farmstead Brewery ",
    "style": " American Imperial Stout",
    "abv": 10.0,
    "availability": "Rotating",
    "brew_state": " VT ",
    "brew_city": " Greensboro Bend",
    "lat": 44.5489422,
    "lng": -72.2648257,
    "beer_id": 92
  },
  {
    "beer_name": "\u00a7ucaba",
    "brewery_name": " Firestone Walker Brewing Co. ",
    "style": " English Barleywine",
    "abv": 12.5,
    "availability": "Rotating",
    "brew_state": " CA ",
    "brew_city": " Paso Robles",
    "lat": 35.6267654,
    "lng": -120.6912456,
    "beer_id": 93
  },
  {
    "beer_name": "Ghost In The Machine - Double Dry-Hopped",
    "brewery_name": " Parish Brewing Company ",
    "style": " New England IPA",
    "abv": 8.0,
    "availability": "Rotating",
    "brew_state": " LA ",
    "brew_city": " Broussard",
    "lat": 30.1471506,
    "lng": -91.9612413,
    "beer_id": 94
  },
  {
    "beer_name": "Bourbon Barrel Aged Plead The 5th",
    "brewery_name": " Dark Horse Brewing Company ",
    "style": " Russian Imperial Stout",
    "abv": 12.0,
    "availability": "Fall",
    "brew_state": " MI ",
    "brew_city": " Marshall",
    "lat": 42.2721367,
    "lng": -84.9642008,
    "beer_id": 95
  },
  {
    "beer_name": "Last Buffalo In The Park",
    "brewery_name": " Funky Buddha Brewery ",
    "style": " American Imperial Porter",
    "abv": 11.5,
    "availability": "Rotating",
    "brew_state": " FL ",
    "brew_city": " Oakland Park",
    "lat": 26.1801443,
    "lng": -80.1372006,
    "beer_id": 96
  },
  {
    "beer_name": "Notorious Triple IPA",
    "brewery_name": " Boneyard Beer Company ",
    "style": " American Imperial IPA",
    "abv": 12.0,
    "availability": "Rotating",
    "brew_state": " OR ",
    "brew_city": " Bend",
    "lat": 44.0581728,
    "lng": -121.3153096,
    "beer_id": 97
  },
  {
    "beer_name": "Alter Ego",
    "brewery_name": " Tree House Brewing Company ",
    "style": " New England IPA",
    "abv": 6.8,
    "availability": "Rotating",
    "brew_state": " MA ",
    "brew_city": " Charlton",
    "lat": 42.1348444,
    "lng": -71.9643153,
    "beer_id": 98
  },
  {
    "beer_name": "Sunday Brunch",
    "brewery_name": " Kane Brewing Company ",
    "style": " American Imperial Porter",
    "abv": 9.2,
    "availability": "Rotating",
    "brew_state": " NJ ",
    "brew_city": " Ocean",
    "lat": 39.977818,
    "lng": -74.3319287,
    "beer_id": 99
  },
  {
    "beer_name": "Black Gold",
    "brewery_name": " Central Waters Brewing Co. ",
    "style": " American Imperial Stout",
    "abv": 11.0,
    "availability": "Rotating",
    "brew_state": " WI ",
    "brew_city": " Amherst",
    "lat": 44.4506775,
    "lng": -89.2845905,
    "beer_id": 100
  },
  {
    "beer_name": "Pseudo Sue - Double Dry-Hopped",
    "brewery_name": " Toppling Goliath Brewing Company ",
    "style": " American Pale Ale (APA)",
    "abv": 6.8,
    "availability": "Rotating",
    "brew_state": " IA ",
    "brew_city": " Decorah",
    "lat": 43.3033056,
    "lng": -91.7857092,
    "beer_id": 101
  },
  {
    "beer_name": "Miami Madness",
    "brewery_name": " J. Wakefield Brewing ",
    "style": " Berliner Weisse",
    "abv": 5.5,
    "availability": "Rotating",
    "brew_state": " FL ",
    "brew_city": " Miami",
    "lat": 25.7742658,
    "lng": -80.1936589,
    "beer_id": 102
  },
  {
    "beer_name": "Society & Solitude #5",
    "brewery_name": " Hill Farmstead Brewery ",
    "style": " New England IPA",
    "abv": 8.1,
    "availability": "Rotating",
    "brew_state": " VT ",
    "brew_city": " Greensboro Bend",
    "lat": 44.5489422,
    "lng": -72.2648257,
    "beer_id": 103
  },
  {
    "beer_name": "The Rusty Nail",
    "brewery_name": " Fremont Brewing Company ",
    "style": " English Oatmeal Stout",
    "abv": 14.5,
    "availability": "Rotating",
    "brew_state": " WA ",
    "brew_city": " Seattle",
    "lat": 47.6038321,
    "lng": -122.3300624,
    "beer_id": 104
  },
  {
    "beer_name": "Pirate Paradise",
    "brewery_name": " Prairie Artisan Ales ",
    "style": " American Imperial Stout",
    "abv": 13.0,
    "availability": "Rotating",
    "brew_state": " OK ",
    "brew_city": " Tulsa",
    "lat": 36.1556805,
    "lng": -95.9929113,
    "beer_id": 105
  },
  {
    "beer_name": "Cutting Tiles (Mosaic)",
    "brewery_name": " Trillium Brewing Company ",
    "style": " New England IPA",
    "abv": 8.5,
    "availability": "Rotating",
    "brew_state": " MA ",
    "brew_city": " Boston",
    "lat": 42.3602534,
    "lng": -71.0582912,
    "beer_id": 106
  },
  {
    "beer_name": "Bl\u00e5b\u00e6r Lambik",
    "brewery_name": " Brasserie Cantillon ",
    "style": " Belgian Fruit Lambic",
    "abv": 5.0,
    "availability": "Rotating",
    "brew_state": " Belgium ",
    "brew_city": " Brussels",
    "lat": 50.8436709,
    "lng": 4.3674367,
    "beer_id": 107
  },
  {
    "beer_name": "Samuel Adams Utopias",
    "brewery_name": " Boston Beer Company (Samuel Adams) ",
    "style": " American Strong Ale",
    "abv": 28.0,
    "availability": "Rotating",
    "brew_state": " MA ",
    "brew_city": " Jamaica Plain",
    "lat": 42.3098201,
    "lng": -71.1203299,
    "beer_id": 108
  },
  {
    "beer_name": "Pirate Bomb!",
    "brewery_name": " Prairie Artisan Ales ",
    "style": " American Imperial Stout",
    "abv": 15.0,
    "availability": "Rotating",
    "brew_state": " OK ",
    "brew_city": " Tulsa",
    "lat": 36.1556805,
    "lng": -95.9929113,
    "beer_id": 109
  },
  {
    "beer_name": "Speedway Stout - Bourbon Barrel-Aged",
    "brewery_name": " AleSmith Brewing Company ",
    "style": " American Imperial Stout",
    "abv": 12.0,
    "availability": "Rotating",
    "brew_state": " CA ",
    "brew_city": " San Diego",
    "lat": 32.7174209,
    "lng": -117.1627714,
    "beer_id": 110
  },
  {
    "beer_name": "Double Shot",
    "brewery_name": " Tree House Brewing Company ",
    "style": " American Stout",
    "abv": 7.6,
    "availability": "Rotating",
    "brew_state": " MA ",
    "brew_city": " Charlton",
    "lat": 42.1348444,
    "lng": -71.9643153,
    "beer_id": 111
  },
  {
    "beer_name": "Mexican Brunch",
    "brewery_name": " Kane Brewing Company ",
    "style": " American Imperial Porter",
    "abv": 9.2,
    "availability": "Rotating",
    "brew_state": " NJ ",
    "brew_city": " Ocean",
    "lat": 39.977818,
    "lng": -74.3319287,
    "beer_id": 112
  },
  {
    "beer_name": "Great",
    "brewery_name": " Alpine Beer Company ",
    "style": " American Barleywine",
    "abv": 14.0,
    "availability": "Rotating",
    "brew_state": " CA ",
    "brew_city": " Alpine",
    "lat": 54.6610806,
    "lng": -102.0793157,
    "beer_id": 113
  },
  {
    "beer_name": "Grey Monday",
    "brewery_name": " The Bruery ",
    "style": " American Imperial Stout",
    "abv": 19.9,
    "availability": "Summer",
    "brew_state": " CA ",
    "brew_city": " Placentia",
    "lat": 33.8714814,
    "lng": -117.8617337,
    "beer_id": 114
  },
  {
    "beer_name": "Pugachev Royale",
    "brewery_name": " Hangar 24 Brewing ",
    "style": " Russian Imperial Stout",
    "abv": 14.8,
    "availability": "Rotating",
    "brew_state": " CA ",
    "brew_city": " Redlands",
    "lat": 34.055735,
    "lng": -117.1888961,
    "beer_id": 115
  },
  {
    "beer_name": "Bomb!",
    "brewery_name": " Prairie Artisan Ales ",
    "style": " American Imperial Stout",
    "abv": 13.0,
    "availability": "Rotating",
    "brew_state": " OK ",
    "brew_city": " Tulsa",
    "lat": 36.1556805,
    "lng": -95.9929113,
    "beer_id": 116
  },
  {
    "beer_name": "The Peach",
    "brewery_name": " de Garde Brewing ",
    "style": " American Wild Ale",
    "abv": 7.3,
    "availability": "Fall",
    "brew_state": " OR ",
    "brew_city": " Tillamook",
    "lat": 45.460293,
    "lng": -123.7266793,
    "beer_id": 117
  },
  {
    "beer_name": "Wide Awake It's Morning",
    "brewery_name": " Funky Buddha Brewery ",
    "style": " American Imperial Porter",
    "abv": 10.0,
    "availability": "Rotating",
    "brew_state": " FL ",
    "brew_city": " Oakland Park",
    "lat": 26.1801443,
    "lng": -80.1372006,
    "beer_id": 118
  },
  {
    "beer_name": "Consecration",
    "brewery_name": " Russian River Brewing Company ",
    "style": " American Wild Ale",
    "abv": 10.0,
    "availability": "Rotating",
    "brew_state": " CA ",
    "brew_city": " Santa Rosa",
    "lat": 49.2633419,
    "lng": -123.1024943,
    "beer_id": 119
  },
  {
    "beer_name": "Pseudo Sue",
    "brewery_name": " Toppling Goliath Brewing Company ",
    "style": " American Pale Ale (APA)",
    "abv": 5.8,
    "availability": "Year-round",
    "brew_state": " IA ",
    "brew_city": " Decorah",
    "lat": 43.3033056,
    "lng": -91.7857092,
    "beer_id": 120
  },
  {
    "beer_name": "Black Tuesday - Reserve",
    "brewery_name": " The Bruery ",
    "style": " American Imperial Stout",
    "abv": 20.5,
    "availability": "Rotating",
    "brew_state": " CA ",
    "brew_city": " Placentia",
    "lat": 47.2435087,
    "lng": -53.9635466,
    "beer_id": 121
  },
  {
    "beer_name": "Parabajava",
    "brewery_name": " Firestone Walker Brewing Co. ",
    "style": " Russian Imperial Stout",
    "abv": 14.0,
    "availability": "Rotating",
    "brew_state": " CA ",
    "brew_city": " Paso Robles",
    "lat": 35.6267654,
    "lng": -120.6912456,
    "beer_id": 122
  },
  {
    "beer_name": "Framboos",
    "brewery_name": " Brouwerij 3 Fonteinen ",
    "style": " Belgian Fruit Lambic",
    "abv": 5.0,
    "availability": "Rotating",
    "brew_state": " Belgium ",
    "brew_city": " Beersel",
    "lat": 50.7683728,
    "lng": 4.3051098,
    "beer_id": 123
  },
  {
    "beer_name": "Double Dry Hopped Double Mosaic Dream",
    "brewery_name": " Other Half Brewing Company - Brooklyn ",
    "style": " New England IPA",
    "abv": 8.5,
    "availability": "Rotating",
    "brew_state": " NY ",
    "brew_city": " Brooklyn",
    "lat": 40.6501038,
    "lng": -73.9495823,
    "beer_id": 124
  },
  {
    "beer_name": "Hommage",
    "brewery_name": " Brouwerij 3 Fonteinen ",
    "style": " Belgian Fruit Lambic",
    "abv": 6.0,
    "availability": "Rotating",
    "brew_state": " Belgium ",
    "brew_city": " Beersel",
    "lat": 50.7683728,
    "lng": 4.3051098,
    "beer_id": 125
  },
  {
    "beer_name": "In Perpetuity",
    "brewery_name": " Tree House Brewing Company ",
    "style": " New England IPA",
    "abv": 6.7,
    "availability": "Rotating",
    "brew_state": " MA ",
    "brew_city": " Charlton",
    "lat": 42.1348444,
    "lng": -71.9643153,
    "beer_id": 126
  },
  {
    "beer_name": "Gggreennn!",
    "brewery_name": " Tree House Brewing Company ",
    "style": " New England IPA",
    "abv": 7.5,
    "availability": "Rotating",
    "brew_state": " MA ",
    "brew_city": " Charlton",
    "lat": 42.1348444,
    "lng": -71.9643153,
    "beer_id": 127
  },
  {
    "beer_name": "Scaled Way Up",
    "brewery_name": " Trillium Brewing Company ",
    "style": " New England IPA",
    "abv": 8.0,
    "availability": "Rotating",
    "brew_state": " MA ",
    "brew_city": " Boston",
    "lat": 42.3602534,
    "lng": -71.0582912,
    "beer_id": 128
  },
  {
    "beer_name": "Imperial Biscotti Break - Bourbon Barrel-Aged",
    "brewery_name": " Evil Twin Brewing ",
    "style": " American Imperial Stout",
    "abv": 11.5,
    "availability": "Rotating",
    "brew_state": " NY ",
    "brew_city": " Brooklyn",
    "lat": 40.6501038,
    "lng": -73.9495823,
    "beer_id": 129
  },
  {
    "beer_name": "Abrasive Ale",
    "brewery_name": " Surly Brewing Company ",
    "style": " American Imperial IPA",
    "abv": 9.2,
    "availability": "Rotating",
    "brew_state": " MN ",
    "brew_city": " Brooklyn Center",
    "lat": 45.0748543,
    "lng": -93.3296296,
    "beer_id": 130
  },
  {
    "beer_name": "Permanent Funeral",
    "brewery_name": " 3 Floyds Brewing Co. ",
    "style": " American Imperial IPA",
    "abv": 10.5,
    "availability": "Year-round",
    "brew_state": " IN ",
    "brew_city": " Munster",
    "lat": 41.5644798,
    "lng": -87.5125412,
    "beer_id": 131
  },
  {
    "beer_name": "Moment Of Clarity",
    "brewery_name": " Tree House Brewing Company ",
    "style": " English Sweet / Milk Stout",
    "abv": 7.7,
    "availability": "Rotating",
    "brew_state": " MA ",
    "brew_city": " Charlton",
    "lat": 42.1348444,
    "lng": -71.9643153,
    "beer_id": 132
  },
  {
    "beer_name": "4th Anniversary",
    "brewery_name": " Other Half Brewing Company - Brooklyn ",
    "style": " New England IPA",
    "abv": 10.0,
    "availability": "Rotating",
    "brew_state": " NY ",
    "brew_city": " Brooklyn",
    "lat": 40.6501038,
    "lng": -73.9495823,
    "beer_id": 133
  },
  {
    "beer_name": "Susan",
    "brewery_name": " Hill Farmstead Brewery ",
    "style": " New England IPA",
    "abv": 6.2,
    "availability": "Rotating",
    "brew_state": " VT ",
    "brew_city": " Greensboro Bend",
    "lat": 44.5489422,
    "lng": -72.2648257,
    "beer_id": 134
  },
  {
    "beer_name": "3rd Anniversary Imperial IPA",
    "brewery_name": " Other Half Brewing Company - Brooklyn ",
    "style": " New England IPA",
    "abv": 10.0,
    "availability": "Rotating",
    "brew_state": " NY ",
    "brew_city": " Brooklyn",
    "lat": 40.6501038,
    "lng": -73.9495823,
    "beer_id": 135
  },
  {
    "beer_name": "Kaggen! Stormaktsporter",
    "brewery_name": " N\u00e4rke Kulturbryggeri AB ",
    "style": " Russian Imperial Stout",
    "abv": 10.0,
    "availability": "Rotating",
    "brew_state": " Sweden ",
    "brew_city": " \u00d6rebro",
    "lat": 59.2747287,
    "lng": 15.2151181,
    "beer_id": 136
  },
  {
    "beer_name": "Montmorency Vs Balaton",
    "brewery_name": " Jester King Brewery ",
    "style": " American Wild Ale",
    "abv": 6.1,
    "availability": "Rotating",
    "brew_state": " TX ",
    "brew_city": " Austin",
    "lat": 30.2711286,
    "lng": -97.7436995,
    "beer_id": 137
  },
  {
    "beer_name": "Mocha Wednesday",
    "brewery_name": " The Bruery ",
    "style": " American Imperial Stout",
    "abv": 19.9,
    "availability": "Rotating",
    "brew_state": " CA ",
    "brew_city": " Placentia",
    "lat": 47.2435087,
    "lng": -53.9635466,
    "beer_id": 138
  },
  {
    "beer_name": "Darkness",
    "brewery_name": " Surly Brewing Company ",
    "style": " Russian Imperial Stout",
    "abv": 12.0,
    "availability": "Fall",
    "brew_state": " MN ",
    "brew_city": " Brooklyn Center",
    "lat": 45.0748543,
    "lng": -93.3296296,
    "beer_id": 139
  },
  {
    "beer_name": "No Rules",
    "brewery_name": " Perrin Brewing Co. ",
    "style": " American Imperial Porter",
    "abv": 15.0,
    "availability": "Rotating",
    "brew_state": " MI ",
    "brew_city": " Comstock Park",
    "lat": 43.0342874,
    "lng": -85.6655303,
    "beer_id": 140
  },
  {
    "beer_name": "Double Stack",
    "brewery_name": " Great Notion Brewing ",
    "style": " American Imperial Stout",
    "abv": 11.0,
    "availability": "Rotating",
    "brew_state": " OR ",
    "brew_city": " Portland",
    "lat": 45.5202471,
    "lng": -122.6741949,
    "beer_id": 141
  },
  {
    "beer_name": "Double Dry Hopped Mylar Bags",
    "brewery_name": " Other Half Brewing Company - Brooklyn ",
    "style": " New England IPA",
    "abv": 8.5,
    "availability": "Rotating",
    "brew_state": " NY ",
    "brew_city": " Brooklyn",
    "lat": 40.6501038,
    "lng": -73.9495823,
    "beer_id": 142
  },
  {
    "beer_name": "Everett Porter",
    "brewery_name": " Hill Farmstead Brewery ",
    "style": " American Porter",
    "abv": 7.5,
    "availability": "Rotating",
    "brew_state": " VT ",
    "brew_city": " Greensboro Bend",
    "lat": 44.5489422,
    "lng": -72.2648257,
    "beer_id": 143
  },
  {
    "beer_name": "Lou Pepe - Gueuze",
    "brewery_name": " Brasserie Cantillon ",
    "style": " Belgian Gueuze",
    "abv": 5.0,
    "availability": "Rotating",
    "brew_state": " Belgium ",
    "brew_city": " Brussels",
    "lat": 50.8436709,
    "lng": 4.3674367,
    "beer_id": 144
  },
  {
    "beer_name": "Heavy Mettle",
    "brewery_name": " Trillium Brewing Company ",
    "style": " New England IPA",
    "abv": 9.3,
    "availability": "Rotating",
    "brew_state": " MA ",
    "brew_city": " Boston",
    "lat": 42.3602534,
    "lng": -71.0582912,
    "beer_id": 145
  },
  {
    "beer_name": "Congress Street IPA",
    "brewery_name": " Trillium Brewing Company ",
    "style": " New England IPA",
    "abv": 7.2,
    "availability": "Rotating",
    "brew_state": " MA ",
    "brew_city": " Boston",
    "lat": 42.3602534,
    "lng": -71.0582912,
    "beer_id": 146
  },
  {
    "beer_name": "A Deal With The Devil - Double Oak-Aged",
    "brewery_name": " Anchorage Brewing Company ",
    "style": " American Barleywine",
    "abv": 17.0,
    "availability": "Rotating",
    "brew_state": " AK ",
    "brew_city": " Anchorage",
    "lat": 61.2163129,
    "lng": -149.8948523,
    "beer_id": 147
  },
  {
    "beer_name": "Speedway Stout - Vietnamese Coffee",
    "brewery_name": " AleSmith Brewing Company ",
    "style": " American Imperial Stout",
    "abv": 12.0,
    "availability": "Rotating",
    "brew_state": " CA ",
    "brew_city": " San Diego",
    "lat": 32.7174209,
    "lng": -117.1627714,
    "beer_id": 148
  },
  {
    "beer_name": "Abt 12",
    "brewery_name": " Brouwerij St. Bernardus NV ",
    "style": " Belgian Quadrupel (Quad)",
    "abv": 10.0,
    "availability": "Year-round",
    "brew_state": " Belgium ",
    "brew_city": " Watou",
    "lat": 50.8451864,
    "lng": 2.6449116999999998,
    "beer_id": 149
  },
  {
    "beer_name": "Upper Case",
    "brewery_name": " Trillium Brewing Company ",
    "style": " New England IPA",
    "abv": 9.0,
    "availability": "Rotating",
    "brew_state": " MA ",
    "brew_city": " Boston",
    "lat": 42.3602534,
    "lng": -71.0582912,
    "beer_id": 150
  },
  {
    "beer_name": "Society & Solitude #6",
    "brewery_name": " Hill Farmstead Brewery ",
    "style": " New England IPA",
    "abv": 8.1,
    "availability": "Rotating",
    "brew_state": " VT ",
    "brew_city": " Greensboro Bend",
    "lat": 44.5489422,
    "lng": -72.2648257,
    "beer_id": 151
  },
  {
    "beer_name": "The Abyss",
    "brewery_name": " Deschutes Brewery ",
    "style": " American Imperial Stout",
    "abv": 11.4,
    "availability": "Winter",
    "brew_state": " OR ",
    "brew_city": " Bend",
    "lat": 44.0581728,
    "lng": -121.3153096,
    "beer_id": 152
  },
  {
    "beer_name": "Hold On To Sunshine",
    "brewery_name": " Tree House Brewing Company ",
    "style": " English Sweet / Milk Stout",
    "abv": 7.6,
    "availability": "Rotating",
    "brew_state": " MA ",
    "brew_city": " Charlton",
    "lat": 42.1348444,
    "lng": -71.9643153,
    "beer_id": 153
  },
  {
    "beer_name": "Bourbon Barrel Aged Dark Star: Coffee Edition",
    "brewery_name": " Fremont Brewing Company ",
    "style": " English Oatmeal Stout",
    "abv": 13.6,
    "availability": "Fall",
    "brew_state": " WA ",
    "brew_city": " Seattle",
    "lat": 47.6038321,
    "lng": -122.3300624,
    "beer_id": 154
  },
  {
    "beer_name": "Double Dry Hopped Melcher Street",
    "brewery_name": " Trillium Brewing Company ",
    "style": " New England IPA",
    "abv": 7.2,
    "availability": "Rotating",
    "brew_state": " MA ",
    "brew_city": " Boston",
    "lat": 42.3602534,
    "lng": -71.0582912,
    "beer_id": 155
  },
  {
    "beer_name": "Damon (Bourbon Barrel Aged)",
    "brewery_name": " Hill Farmstead Brewery ",
    "style": " Russian Imperial Stout",
    "abv": 10.5,
    "availability": "Rotating",
    "brew_state": " VT ",
    "brew_city": " Greensboro Bend",
    "lat": 44.5489422,
    "lng": -72.2648257,
    "beer_id": 156
  },
  {
    "beer_name": "Abraxas",
    "brewery_name": " Perennial Artisan Ales ",
    "style": " American Imperial Stout",
    "abv": 10.0,
    "availability": "Fall",
    "brew_state": " MO ",
    "brew_city": " Saint Louis",
    "lat": 38.6268039,
    "lng": -90.1994097,
    "beer_id": 157
  },
  {
    "beer_name": "Mosaic Dry Hopped Fort Point",
    "brewery_name": " Trillium Brewing Company ",
    "style": " American Pale Ale (APA)",
    "abv": 6.6,
    "availability": "Rotating",
    "brew_state": " MA ",
    "brew_city": " Boston",
    "lat": 42.3602534,
    "lng": -71.0582912,
    "beer_id": 158
  },
  {
    "beer_name": "Cutting Tiles (Galaxy)",
    "brewery_name": " Trillium Brewing Company ",
    "style": " New England IPA",
    "abv": 8.5,
    "availability": "Rotating",
    "brew_state": " MA ",
    "brew_city": " Boston",
    "lat": 42.3602534,
    "lng": -71.0582912,
    "beer_id": 159
  },
  {
    "beer_name": "Oude Geuze Golden Blend",
    "brewery_name": " Brouwerij 3 Fonteinen ",
    "style": " Belgian Gueuze",
    "abv": 7.5,
    "availability": "Rotating",
    "brew_state": " Belgium ",
    "brew_city": " Beersel",
    "lat": 50.7683728,
    "lng": 4.3051098,
    "beer_id": 160
  },
  {
    "beer_name": "Last Snow",
    "brewery_name": " Funky Buddha Brewery ",
    "style": " American Porter",
    "abv": 6.4,
    "availability": "Rotating",
    "brew_state": " FL ",
    "brew_city": " Oakland Park",
    "lat": 26.1801443,
    "lng": -80.1372006,
    "beer_id": 161
  },
  {
    "beer_name": "Hopslam Ale",
    "brewery_name": " Bell's Brewery - Eccentric Caf\u00e9 & General Store ",
    "style": " American Imperial IPA",
    "abv": 10.0,
    "availability": "Winter",
    "brew_state": " MI ",
    "brew_city": " Kalamazoo",
    "lat": 42.291707,
    "lng": -85.5872286,
    "beer_id": 162
  },
  {
    "beer_name": "Saison Bernice",
    "brewery_name": " Sante Adairius Rustic Ales ",
    "style": " Belgian Saison",
    "abv": 6.5,
    "availability": "Rotating",
    "brew_state": " CA ",
    "brew_city": " Capitola",
    "lat": 36.9762927,
    "lng": -121.9540577,
    "beer_id": 163
  },
  {
    "beer_name": "Double Dry Hopped Double Mosaic Daydream",
    "brewery_name": " Other Half Brewing Company - Brooklyn ",
    "style": " New England IPA",
    "abv": 8.5,
    "availability": "Rotating",
    "brew_state": " NY ",
    "brew_city": " Brooklyn",
    "lat": 40.6501038,
    "lng": -73.9495823,
    "beer_id": 164
  },
  {
    "beer_name": "Genealogy Of Morals - Bourbon Barrel-Aged",
    "brewery_name": " Hill Farmstead Brewery ",
    "style": " American Imperial Stout",
    "abv": 10.7,
    "availability": "Rotating",
    "brew_state": " VT ",
    "brew_city": " Greensboro Bend",
    "lat": 44.5489422,
    "lng": -72.2648257,
    "beer_id": 165
  },
  {
    "beer_name": "Apple Brandy Barrel Noir",
    "brewery_name": " Prairie Artisan Ales ",
    "style": " American Imperial Stout",
    "abv": 12.0,
    "availability": "Rotating",
    "brew_state": " OK ",
    "brew_city": " Tulsa",
    "lat": 36.1556805,
    "lng": -95.9929113,
    "beer_id": 166
  },
  {
    "beer_name": "Ground State",
    "brewery_name": " Bottle Logic Brewing ",
    "style": " American Imperial Stout",
    "abv": 13.4,
    "availability": "Rotating",
    "brew_state": " CA ",
    "brew_city": " Anaheim",
    "lat": 33.8347516,
    "lng": -117.911732,
    "beer_id": 167
  },
  {
    "beer_name": "Double Nelson",
    "brewery_name": " Hill Farmstead Brewery ",
    "style": " New England IPA",
    "abv": 8.0,
    "availability": "Rotating",
    "brew_state": " VT ",
    "brew_city": " Greensboro Bend",
    "lat": 44.5489422,
    "lng": -72.2648257,
    "beer_id": 168
  },
  {
    "beer_name": "Oude Geuze Cuv\u00e9e Armand & Gaston",
    "brewery_name": " Brouwerij 3 Fonteinen ",
    "style": " Belgian Gueuze",
    "abv": 6.5,
    "availability": "Rotating",
    "brew_state": " Belgium ",
    "brew_city": " Beersel",
    "lat": 50.7683728,
    "lng": 4.3051098,
    "beer_id": 169
  },
  {
    "beer_name": "Bad Boy",
    "brewery_name": " Alpine Beer Company ",
    "style": " American Imperial IPA",
    "abv": 9.0,
    "availability": "Rotating",
    "brew_state": " CA ",
    "brew_city": " Alpine",
    "lat": 54.6610806,
    "lng": -102.0793157,
    "beer_id": 170
  },
  {
    "beer_name": "Double Barrel Jesus",
    "brewery_name": " Evil Twin Brewing ",
    "style": " American Imperial Stout",
    "abv": 12.0,
    "availability": "Rotating",
    "brew_state": " NY ",
    "brew_city": " Brooklyn",
    "lat": 40.6501038,
    "lng": -73.9495823,
    "beer_id": 171
  },
  {
    "beer_name": "Stickee Monkee",
    "brewery_name": " Firestone Walker Brewing Co. ",
    "style": " Belgian Quadrupel (Quad)",
    "abv": 12.5,
    "availability": "Rotating",
    "brew_state": " CA ",
    "brew_city": " Paso Robles",
    "lat": 35.6267654,
    "lng": -120.6912456,
    "beer_id": 172
  },
  {
    "beer_name": "La Fosse",
    "brewery_name": " Side Project Brewing ",
    "style": " American Wild Ale",
    "abv": 8.0,
    "availability": "Rotating",
    "brew_state": " MO ",
    "brew_city": " Maplewood",
    "lat": 38.6125521,
    "lng": -90.3245599,
    "beer_id": 173
  },
  {
    "beer_name": "Mexican Cake - Maple Bourbon Barrel-Aged",
    "brewery_name": " Westbrook Brewing Co. ",
    "style": " American Imperial Stout",
    "abv": 10.2,
    "availability": "Rotating",
    "brew_state": " SC ",
    "brew_city": " Mount Pleasant",
    "lat": 32.7940651,
    "lng": -79.8625851,
    "beer_id": 174
  },
  {
    "beer_name": "Impermanence",
    "brewery_name": " Tree House Brewing Company ",
    "style": " English Sweet / Milk Stout",
    "abv": 9.0,
    "availability": "Rotating",
    "brew_state": " MA ",
    "brew_city": " Charlton",
    "lat": 42.1348444,
    "lng": -71.9643153,
    "beer_id": 175
  },
  {
    "beer_name": "DFPF",
    "brewery_name": " J. Wakefield Brewing ",
    "style": " Berliner Weisse",
    "abv": 3.5,
    "availability": "Rotating",
    "brew_state": " FL ",
    "brew_city": " Miami",
    "lat": 25.7742658,
    "lng": -80.1936589,
    "beer_id": 176
  },
  {
    "beer_name": "Aurelian Lure",
    "brewery_name": " Jester King Brewery ",
    "style": " American Wild Ale",
    "abv": 5.4,
    "availability": "Rotating",
    "brew_state": " TX ",
    "brew_city": " Austin",
    "lat": 30.2711286,
    "lng": -97.7436995,
    "beer_id": 177
  },
  {
    "beer_name": "Trappist Westvleteren 8 (VIII)",
    "brewery_name": " Brouwerij Westvleteren (Sint-Sixtusabdij van Westvleteren) ",
    "style": " Belgian Dubbel",
    "abv": 8.0,
    "availability": "Year-round",
    "brew_state": " Belgium ",
    "brew_city": " Westvleteren",
    "lat": 50.9103823,
    "lng": 2.7205509,
    "beer_id": 178
  },
  {
    "beer_name": "Crusher",
    "brewery_name": " The Alchemist ",
    "style": " New England IPA",
    "abv": 8.0,
    "availability": "Rotating",
    "brew_state": " VT ",
    "brew_city": " Stowe",
    "lat": 44.4653741,
    "lng": -72.6860186,
    "beer_id": 179
  },
  {
    "beer_name": "Maple Bacon Coffee Porter",
    "brewery_name": " Funky Buddha Brewery ",
    "style": " American Porter",
    "abv": 6.4,
    "availability": "Rotating",
    "brew_state": " FL ",
    "brew_city": " Oakland Park",
    "lat": 26.1801443,
    "lng": -80.1372006,
    "beer_id": 180
  },
  {
    "beer_name": "Fuzzy Baby Ducks",
    "brewery_name": " New England Brewing Co. ",
    "style": " New England IPA",
    "abv": 6.2,
    "availability": "Rotating",
    "brew_state": " CT ",
    "brew_city": " Woodbridge",
    "lat": 41.352597,
    "lng": -73.0084385,
    "beer_id": 181
  },
  {
    "beer_name": "Adam From The Wood",
    "brewery_name": " Hair Of The Dog Brewing Company / Brewery And Tasting Room ",
    "style": " English Old Ale",
    "abv": 12.0,
    "availability": "Rotating",
    "brew_state": " OR ",
    "brew_city": " Portland",
    "lat": 45.5202471,
    "lng": -122.6741949,
    "beer_id": 182
  },
  {
    "beer_name": "Sosus",
    "brewery_name": " Toppling Goliath Brewing Company ",
    "style": " New England IPA",
    "abv": 8.0,
    "availability": "Rotating",
    "brew_state": " IA ",
    "brew_city": " Decorah",
    "lat": 43.3033056,
    "lng": -91.7857092,
    "beer_id": 183
  },
  {
    "beer_name": "Barrel-Aged Silhouette",
    "brewery_name": " Lift Bridge Brewery ",
    "style": " Russian Imperial Stout",
    "abv": 11.0,
    "availability": "Winter",
    "brew_state": " MN ",
    "brew_city": " Stillwater",
    "lat": 45.0564041,
    "lng": -92.8134982,
    "beer_id": 184
  },
  {
    "beer_name": "BDCS",
    "brewery_name": " Ozark Beer Co. ",
    "style": " American Imperial Stout",
    "abv": 10.2,
    "availability": "Rotating",
    "brew_state": " AR ",
    "brew_city": " Rogers",
    "lat": -51.6404112,
    "lng": -69.2210904,
    "beer_id": 185
  },
  {
    "beer_name": "Art",
    "brewery_name": " Hill Farmstead Brewery ",
    "style": " Belgian Saison",
    "abv": 6.5,
    "availability": "Rotating",
    "brew_state": " VT ",
    "brew_city": " Greensboro Bend",
    "lat": 44.5489422,
    "lng": -72.2648257,
    "beer_id": 186
  },
  {
    "beer_name": "Matt",
    "brewery_name": " Hair Of The Dog Brewing Company / Brewery And Tasting Room ",
    "style": " American Strong Ale",
    "abv": 11.5,
    "availability": "Rotating",
    "brew_state": " OR ",
    "brew_city": " Portland",
    "lat": 45.5202471,
    "lng": -122.6741949,
    "beer_id": 187
  },
  {
    "beer_name": "Imperial German Chocolate Cupcake Stout",
    "brewery_name": " Angry Chair Brewing ",
    "style": " American Imperial Stout",
    "abv": 11.5,
    "availability": "Rotating",
    "brew_state": " FL ",
    "brew_city": " Tampa",
    "lat": 27.9477595,
    "lng": -82.458444,
    "beer_id": 188
  },
  {
    "beer_name": "Gueuze 100% Lambic",
    "brewery_name": " Brasserie Cantillon ",
    "style": " Belgian Gueuze",
    "abv": 5.0,
    "availability": "Year-round",
    "brew_state": " Belgium ",
    "brew_city": " Brussels",
    "lat": 50.8436709,
    "lng": 4.3674367,
    "beer_id": 189
  },
  {
    "beer_name": "Temptation",
    "brewery_name": " Russian River Brewing Company ",
    "style": " American Wild Ale",
    "abv": 7.5,
    "availability": "Rotating",
    "brew_state": " CA ",
    "brew_city": " Santa Rosa",
    "lat": 49.2633419,
    "lng": -123.1024943,
    "beer_id": 190
  },
  {
    "beer_name": "Leaner",
    "brewery_name": " Casey Brewing & Blending ",
    "style": " Belgian Saison",
    "abv": 8.0,
    "availability": "Winter",
    "brew_state": " CO ",
    "brew_city": " Glenwood Springs",
    "lat": 39.5507448,
    "lng": -107.3255001,
    "beer_id": 191
  },
  {
    "beer_name": "Barrel Aged Bomb!",
    "brewery_name": " Prairie Artisan Ales ",
    "style": " American Imperial Stout",
    "abv": 14.7,
    "availability": "Rotating",
    "brew_state": " OK ",
    "brew_city": " Tulsa",
    "lat": 36.1556805,
    "lng": -95.9929113,
    "beer_id": 192
  },
  {
    "beer_name": "Fundamental Forces",
    "brewery_name": " Bottle Logic Brewing ",
    "style": " American Imperial Stout",
    "abv": 16.2,
    "availability": "Rotating",
    "brew_state": " CA ",
    "brew_city": " Anaheim",
    "lat": 33.8347516,
    "lng": -117.911732,
    "beer_id": 193
  },
  {
    "beer_name": "Leche Borracho",
    "brewery_name": " Bottle Logic Brewing ",
    "style": " American Imperial Stout",
    "abv": 11.0,
    "availability": "Rotating",
    "brew_state": " CA ",
    "brew_city": " Anaheim",
    "lat": 33.8347516,
    "lng": -117.911732,
    "beer_id": 194
  },
  {
    "beer_name": "Clare's Thirsty Ale",
    "brewery_name": " Haymarket Beer Co. Pub & Brewery ",
    "style": " American Imperial Stout",
    "abv": 12.5,
    "availability": "Rotating",
    "brew_state": " IL ",
    "brew_city": " Chicago",
    "lat": 41.8755616,
    "lng": -87.6244212,
    "beer_id": 195
  },
  {
    "beer_name": "Ten FIDY - Bourbon Barrel Aged",
    "brewery_name": " Oskar Blues Grill & Brew ",
    "style": " American Imperial Stout",
    "abv": 12.5,
    "availability": "Rotating",
    "brew_state": " CO ",
    "brew_city": " Lyons",
    "lat": 40.224432,
    "lng": -105.270532,
    "beer_id": 196
  },
  {
    "beer_name": "Mother Of All Storms",
    "brewery_name": " Pelican Pub & Brewery ",
    "style": " English Barleywine",
    "abv": 14.0,
    "availability": "Winter",
    "brew_state": " OR ",
    "brew_city": " Pacific City",
    "lat": 45.2020606,
    "lng": -123.9635149,
    "beer_id": 197
  },
  {
    "beer_name": "Coffee Abraxas",
    "brewery_name": " Perennial Artisan Ales ",
    "style": " American Imperial Stout",
    "abv": 10.0,
    "availability": "Rotating",
    "brew_state": " MO ",
    "brew_city": " Saint Louis",
    "lat": 38.6268039,
    "lng": -90.1994097,
    "beer_id": 198
  },
  {
    "beer_name": "Bodhi",
    "brewery_name": " Columbus Brewing Company ",
    "style": " American Imperial IPA",
    "abv": 8.5,
    "availability": "Rotating",
    "brew_state": " OH ",
    "brew_city": " Columbus",
    "lat": 39.9622601,
    "lng": -83.0007065,
    "beer_id": 199
  },
  {
    "beer_name": "Citraquench'l",
    "brewery_name": " Heist Brewery ",
    "style": " New England IPA",
    "abv": 7.1,
    "availability": "Rotating",
    "brew_state": " NC ",
    "brew_city": " Charlotte",
    "lat": 35.2272,
    "lng": -80.843083,
    "beer_id": 200
  },
  {
    "beer_name": "Double Dry Hopped All Citra Everything",
    "brewery_name": " Other Half Brewing Company - Brooklyn ",
    "style": " New England IPA",
    "abv": 8.5,
    "availability": "Rotating",
    "brew_state": " NY ",
    "brew_city": " Brooklyn",
    "lat": 40.6501038,
    "lng": -73.9495823,
    "beer_id": 201
  },
  {
    "beer_name": "Rodenbach Caract\u00e8re Rouge",
    "brewery_name": " Brouwerij Rodenbach N.V. ",
    "style": " Flanders Red Ale",
    "abv": 7.0,
    "availability": "Rotating",
    "brew_state": " Belgium ",
    "brew_city": " Roeselare",
    "lat": 50.9444948,
    "lng": 3.124765,
    "beer_id": 202
  },
  {
    "beer_name": "Kiwi Herman",
    "brewery_name": " Alpine Beer Company ",
    "style": " American Wild Ale",
    "abv": 7.0,
    "availability": "Rotating",
    "brew_state": " CA ",
    "brew_city": " Alpine",
    "lat": 54.6610806,
    "lng": -102.0793157,
    "beer_id": 203
  },
  {
    "beer_name": "Emerald Grouper",
    "brewery_name": " Pipeworks Brewing Company ",
    "style": " American Imperial IPA",
    "abv": 9.5,
    "availability": "Rotating",
    "brew_state": " IL ",
    "brew_city": " Chicago",
    "lat": 41.8755616,
    "lng": -87.6244212,
    "beer_id": 204
  },
  {
    "beer_name": "Hunahpu's Imperial Stout - Bourbon Barrel-Aged",
    "brewery_name": " Cigar City Brewing ",
    "style": " American Imperial Stout",
    "abv": 14.6,
    "availability": "Rotating",
    "brew_state": " FL ",
    "brew_city": " Tampa",
    "lat": 27.9477595,
    "lng": -82.458444,
    "beer_id": 205
  },
  {
    "beer_name": "Somewhere, Something Incredible Is Waiting To Be Known",
    "brewery_name": " Tree House Brewing Company ",
    "style": " Something Incredible Is Waiting To Be Known",
    "abv": 7.9,
    "availability": "Rotating",
    "brew_state": " MA ",
    "brew_city": " Charlton",
    "lat": 42.1348444,
    "lng": -71.9643153,
    "beer_id": 206
  },
  {
    "beer_name": "Birth Of Tragedy",
    "brewery_name": " Hill Farmstead Brewery ",
    "style": " American Imperial Porter",
    "abv": 9.0,
    "availability": "Winter",
    "brew_state": " VT ",
    "brew_city": " Greensboro Bend",
    "lat": 44.5489422,
    "lng": -72.2648257,
    "beer_id": 207
  },
  {
    "beer_name": "Flora",
    "brewery_name": " Hill Farmstead Brewery ",
    "style": " Belgian Saison",
    "abv": 4.8,
    "availability": "Rotating",
    "brew_state": " VT ",
    "brew_city": " Greensboro Bend",
    "lat": 44.5489422,
    "lng": -72.2648257,
    "beer_id": 208
  },
  {
    "beer_name": "Caff\u00e8 Americano",
    "brewery_name": " Cigar City Brewing ",
    "style": " American Imperial Stout",
    "abv": 12.0,
    "availability": "Rotating",
    "brew_state": " FL ",
    "brew_city": " Tampa",
    "lat": 27.9477595,
    "lng": -82.458444,
    "beer_id": 209
  },
  {
    "beer_name": "Bourbon Barrel Oro Negro",
    "brewery_name": " Jackie O's Pub & Brewery ",
    "style": " American Imperial Stout",
    "abv": 12.1,
    "availability": "Rotating",
    "brew_state": " OH ",
    "brew_city": " Athens",
    "lat": 39.355589,
    "lng": -82.0610404,
    "beer_id": 210
  },
  {
    "beer_name": "Tweak",
    "brewery_name": " Avery Brewing Company ",
    "style": " American Imperial Stout",
    "abv": 16.0,
    "availability": "Rotating",
    "brew_state": " CO ",
    "brew_city": " Boulder",
    "lat": 40.0149856,
    "lng": -105.2705456,
    "beer_id": 211
  },
  {
    "beer_name": "Appervation",
    "brewery_name": " Jackie O's Pub & Brewery ",
    "style": " American Imperial Stout",
    "abv": 15.0,
    "availability": "Rotating",
    "brew_state": " OH ",
    "brew_city": " Athens",
    "lat": 39.355589,
    "lng": -82.0610404,
    "beer_id": 212
  },
  {
    "beer_name": "Hop JuJu Imperial IPA",
    "brewery_name": " Fat Head's Brewery & Saloon ",
    "style": " American Imperial IPA",
    "abv": 9.0,
    "availability": "Rotating",
    "brew_state": " OH ",
    "brew_city": " North Olmsted",
    "lat": 41.4156025,
    "lng": -81.9234726,
    "beer_id": 213
  },
  {
    "beer_name": "Bourbon Barrel Black Maple",
    "brewery_name": " Jackie O's Pub & Brewery ",
    "style": " American Imperial Porter",
    "abv": 11.0,
    "availability": "Rotating",
    "brew_state": " OH ",
    "brew_city": " Athens",
    "lat": 39.355589,
    "lng": -82.0610404,
    "beer_id": 214
  },
  {
    "beer_name": "Second Fiddle",
    "brewery_name": " Fiddlehead Brewing Company ",
    "style": " American Imperial IPA",
    "abv": 8.2,
    "availability": "Rotating",
    "brew_state": " VT ",
    "brew_city": " Shelburne",
    "lat": 44.3783486,
    "lng": -73.2276183,
    "beer_id": 215
  },
  {
    "beer_name": "Fort Point Pale Ale",
    "brewery_name": " Trillium Brewing Company ",
    "style": " American Pale Ale (APA)",
    "abv": 6.6,
    "availability": "Year-round",
    "brew_state": " MA ",
    "brew_city": " Boston",
    "lat": 42.3602534,
    "lng": -71.0582912,
    "beer_id": 216
  },
  {
    "beer_name": "Juicy",
    "brewery_name": " Hill Farmstead Brewery ",
    "style": " Belgian Saison",
    "abv": 7.4,
    "availability": "Rotating",
    "brew_state": " VT ",
    "brew_city": " Greensboro Bend",
    "lat": 44.5489422,
    "lng": -72.2648257,
    "beer_id": 217
  },
  {
    "beer_name": "Ghost In The Machine",
    "brewery_name": " Parish Brewing Company ",
    "style": " New England IPA",
    "abv": 8.5,
    "availability": "Rotating",
    "brew_state": " LA ",
    "brew_city": " Broussard",
    "lat": 30.1471506,
    "lng": -91.9612413,
    "beer_id": 218
  },
  {
    "beer_name": "Expedition Stout - Bourbon Barrel-Aged",
    "brewery_name": " Bell's Brewery - Eccentric Caf\u00e9 & General Store ",
    "style": " Russian Imperial Stout",
    "abv": 13.4,
    "availability": "Rotating",
    "brew_state": " MI ",
    "brew_city": " Kalamazoo",
    "lat": 42.291707,
    "lng": -85.5872286,
    "beer_id": 219
  },
  {
    "beer_name": "Thicket",
    "brewery_name": " Side Project Brewing ",
    "style": " American Wild Ale",
    "abv": 6.0,
    "availability": "Rotating",
    "brew_state": " MO ",
    "brew_city": " Maplewood",
    "lat": 38.6125521,
    "lng": -90.3245599,
    "beer_id": 220
  },
  {
    "beer_name": "Imperial Eclipse Stout - Elijah Craig (12 Year)",
    "brewery_name": " FiftyFifty Brewing Co. ",
    "style": " American Imperial Stout",
    "abv": 11.9,
    "availability": "Fall",
    "brew_state": " CA ",
    "brew_city": " Truckee",
    "lat": 39.327962,
    "lng": -120.1832533,
    "beer_id": 221
  },
  {
    "beer_name": "Sang Noir",
    "brewery_name": " Cascade Brewing / Raccoon Lodge & Brewpub ",
    "style": " American Wild Ale",
    "abv": 9.3,
    "availability": "Rotating",
    "brew_state": " OR ",
    "brew_city": " Portland",
    "lat": 45.5202471,
    "lng": -122.6741949,
    "beer_id": 222
  },
  {
    "beer_name": "Vicinity",
    "brewery_name": " Trillium Brewing Company ",
    "style": " New England IPA",
    "abv": 8.0,
    "availability": "Rotating",
    "brew_state": " MA ",
    "brew_city": " Boston",
    "lat": 42.3602534,
    "lng": -71.0582912,
    "beer_id": 223
  },
  {
    "beer_name": "Bourbon Barrel Champion Ground",
    "brewery_name": " Jackie O's Pub & Brewery ",
    "style": " American Imperial Stout",
    "abv": 12.0,
    "availability": "Rotating",
    "brew_state": " OH ",
    "brew_city": " Athens",
    "lat": 39.355589,
    "lng": -82.0610404,
    "beer_id": 224
  },
  {
    "beer_name": "Medianoche - Coconut",
    "brewery_name": " WeldWerks Brewing Co. ",
    "style": " American Imperial Stout",
    "abv": 14.1,
    "availability": "Rotating",
    "brew_state": " CO ",
    "brew_city": " Greeley",
    "lat": 40.4233142,
    "lng": -104.7091322,
    "beer_id": 225
  },
  {
    "beer_name": "Coconut B-Bomb",
    "brewery_name": " Fremont Brewing Company ",
    "style": " American Strong Ale",
    "abv": 13.0,
    "availability": "Rotating",
    "brew_state": " WA ",
    "brew_city": " Seattle",
    "lat": 47.6038321,
    "lng": -122.3300624,
    "beer_id": 226
  },
  {
    "beer_name": "Schaerbeekse Kriek",
    "brewery_name": " Brouwerij 3 Fonteinen ",
    "style": " Belgian Fruit Lambic",
    "abv": 6.0,
    "availability": "Rotating",
    "brew_state": " Belgium ",
    "brew_city": " Beersel",
    "lat": 50.7684353,
    "lng": 4.3051098,
    "beer_id": 227
  },
  {
    "beer_name": "Peche 'n Brett",
    "brewery_name": " Logsdon Farmhouse Ales ",
    "style": " Belgian Saison",
    "abv": 10.0,
    "availability": "Rotating",
    "brew_state": " WA ",
    "brew_city": " Washougal",
    "lat": 45.5819594,
    "lng": -122.3479921,
    "beer_id": 228
  },
  {
    "beer_name": "Black & Wild",
    "brewery_name": " Side Project Brewing ",
    "style": " American Wild Ale",
    "abv": 10.0,
    "availability": "Rotating",
    "brew_state": " MO ",
    "brew_city": " Maplewood",
    "lat": 38.6125521,
    "lng": -90.3245599,
    "beer_id": 229
  },
  {
    "beer_name": "Nelson",
    "brewery_name": " Alpine Beer Company ",
    "style": " American IPA",
    "abv": 7.0,
    "availability": "Rotating",
    "brew_state": " CA ",
    "brew_city": " Alpine",
    "lat": 54.6610806,
    "lng": -102.0793157,
    "beer_id": 230
  },
  {
    "beer_name": "Fyodor",
    "brewery_name": " Stone Brewing ",
    "style": " Russian Imperial Stout",
    "abv": 13.1,
    "availability": "Rotating",
    "brew_state": " CA ",
    "brew_city": " Escondido",
    "lat": 33.1216751,
    "lng": -117.0814849,
    "beer_id": 231
  },
  {
    "beer_name": "Axe Man",
    "brewery_name": " Surly Brewing Company ",
    "style": " American IPA",
    "abv": 7.2,
    "availability": "Year-round",
    "brew_state": " MN ",
    "brew_city": " Brooklyn Center",
    "lat": 45.0748543,
    "lng": -93.3296296,
    "beer_id": 232
  },
  {
    "beer_name": "Space Trace",
    "brewery_name": " Bottle Logic Brewing ",
    "style": " American Imperial Stout",
    "abv": 11.1,
    "availability": "Rotating",
    "brew_state": " CA ",
    "brew_city": " Anaheim",
    "lat": 33.8347516,
    "lng": -117.911732,
    "beer_id": 233
  },
  {
    "beer_name": "Coolship Red",
    "brewery_name": " Allagash Brewing Company ",
    "style": " Belgian Fruit Lambic",
    "abv": 5.7,
    "availability": "Rotating",
    "brew_state": " ME ",
    "brew_city": " Portland",
    "lat": 29.0654892,
    "lng": -110.9717051,
    "beer_id": 234
  },
  {
    "beer_name": "Double Dry Hopped Sleeper Street",
    "brewery_name": " Trillium Brewing Company ",
    "style": " New England IPA",
    "abv": 7.2,
    "availability": "Rotating",
    "brew_state": " MA ",
    "brew_city": " Boston",
    "lat": 42.3602534,
    "lng": -71.0582912,
    "beer_id": 235
  },
  {
    "beer_name": "Cellarman Barrel Aged Saison",
    "brewery_name": " Sante Adairius Rustic Ales ",
    "style": " Belgian Saison",
    "abv": 6.5,
    "availability": "Rotating",
    "brew_state": " CA ",
    "brew_city": " Capitola",
    "lat": 36.9762927,
    "lng": -121.9540577,
    "beer_id": 236
  },
  {
    "beer_name": "All That Is And All That Ever Will Be",
    "brewery_name": " Tree House Brewing Company ",
    "style": " English Sweet / Milk Stout",
    "abv": 6.5,
    "availability": "Rotating",
    "brew_state": " MA ",
    "brew_city": " Charlton",
    "lat": 42.1348444,
    "lng": -71.9643153,
    "beer_id": 237
  },
  {
    "beer_name": "Darkstar November",
    "brewery_name": " Bottle Logic Brewing ",
    "style": " Russian Imperial Stout",
    "abv": 13.7,
    "availability": "Fall",
    "brew_state": " CA ",
    "brew_city": " Anaheim",
    "lat": 33.8347516,
    "lng": -117.911732,
    "beer_id": 238
  },
  {
    "beer_name": "Dorothy (Wine Barrel Aged)",
    "brewery_name": " Hill Farmstead Brewery ",
    "style": " Belgian Saison",
    "abv": 7.0,
    "availability": "Rotating",
    "brew_state": " VT ",
    "brew_city": " Greensboro Bend",
    "lat": 44.5489422,
    "lng": -72.2648257,
    "beer_id": 239
  },
  {
    "beer_name": "Hefeweissbier",
    "brewery_name": " Bayerische Staatsbrauerei Weihenstephan ",
    "style": " German Hefeweizen",
    "abv": 5.4,
    "availability": "Year-round",
    "brew_state": " Germany ",
    "brew_city": " Freising",
    "lat": 48.4008273,
    "lng": 11.7439565,
    "beer_id": 240
  },
  {
    "beer_name": "Mastermind",
    "brewery_name": " Fiddlehead Brewing Company ",
    "style": " New England IPA",
    "abv": 8.1,
    "availability": "Rotating",
    "brew_state": " VT ",
    "brew_city": " Shelburne",
    "lat": 44.3783486,
    "lng": -73.2276183,
    "beer_id": 241
  },
  {
    "beer_name": "Blanc De Blancs",
    "brewery_name": " Side Project Brewing ",
    "style": " Bi\u00e8re de Champagne / Bi\u00e8re Brut",
    "abv": 10.0,
    "availability": "Rotating",
    "brew_state": " MO ",
    "brew_city": " Maplewood",
    "lat": 38.6125521,
    "lng": -90.3245599,
    "beer_id": 242
  },
  {
    "beer_name": "Flora - Blueberry",
    "brewery_name": " Hill Farmstead Brewery ",
    "style": " Belgian Saison",
    "abv": 5.0,
    "availability": "Rotating",
    "brew_state": " VT ",
    "brew_city": " Greensboro Bend",
    "lat": 44.5489422,
    "lng": -72.2648257,
    "beer_id": 243
  },
  {
    "beer_name": "Smooth",
    "brewery_name": " Side Project Brewing ",
    "style": " American Wild Ale",
    "abv": 6.0,
    "availability": "Rotating",
    "brew_state": " MO ",
    "brew_city": " Maplewood",
    "lat": 38.6125521,
    "lng": -90.3245599,
    "beer_id": 244
  }
]